city,cloudiness,country,Date,Humidity,temp,Lat,Lon,Max Temp,Wind Speed
bolshaya rechka,0,RU,1562051817,35,86.0,51.95,104.74,86.0,15.66
dingle,100,PH,1562051818,72,84.85,11.0,122.67,84.85,7.92
esperance,90,AU,1562051818,55,60.8,-33.86,121.89,60.8,9.17
bilma,40,NE,1562051819,23,88.09,18.69,12.92,88.09,17.2
evensk,97,RU,1562051819,85,52.27,61.92,159.24,52.27,9.42
bandarbeyla,34,SO,1562051819,44,89.17,9.49,50.81,89.17,32.75
punta arenas,40,CL,1562051819,86,37.22,-53.16,-70.91,37.4,12.75
butaritari,83,KI,1562051820,70,85.03,3.07,172.79,85.03,7.9
chokurdakh,100,RU,1562051222,58,54.07,70.62,147.9,54.07,11.79
puerto ayora,65,EC,1562051759,84,70.09,-0.74,-90.35,70.09,9.1
geraldton,5,CA,1562051821,76,53.6,49.72,-86.95,53.6,2.24
hobart,20,AU,1562051683,66,46.31,-42.88,147.33,50.0,5.82
kaitangata,100,NZ,1562051821,82,48.99,-46.28,169.85,48.99,4.79
cidreira,0,BR,1562051821,86,47.77,-30.17,-50.22,47.77,6.6
lagoa,0,PT,1562051822,72,65.84,37.14,-8.45,66.99,5.82
kavieng,2,PG,1562051822,70,83.41,-2.57,150.8,83.41,7.2
rikitea,100,PF,1562051822,73,69.73,-23.12,-134.97,69.73,19.69
avera,1,US,1562051823,88,75.72,33.19,-82.53,77.0,3.36
ushuaia,90,AR,1562051592,93,35.6,-54.81,-68.31,35.6,4.7
kapaa,40,US,1562051823,78,76.19,22.08,-159.32,78.8,10.29
saint anthony,1,US,1562051824,59,56.37,43.97,-111.68,60.8,3.36
peleduy,64,RU,1562051824,31,86.11,59.63,112.75,86.11,9.46
saint george,20,GR,1562051701,32,81.59,39.45,22.34,84.2,4.7
am timan,100,TD,1562051825,83,74.59,11.04,20.28,74.59,0.6
tuktoyaktuk,97,CA,1562051825,93,39.67,69.44,-133.03,39.67,16.33
dikson,100,RU,1562051825,71,47.23,73.51,80.55,47.23,17.74
mayo,75,CA,1562051826,100,60.8,63.59,-135.9,60.8,2.24
barrow,74,AR,1562051826,53,46.15,-38.31,-60.23,46.15,15.35
yaan,97,NG,1562051826,95,74.41,7.38,8.57,74.41,5.35
jamestown,0,AU,1562051826,62,57.13,-33.21,138.6,57.13,4.7
karasjok,75,NO,1562051827,100,48.2,69.47,25.52,48.2,3.36
shimanovsk,43,RU,1562051827,84,66.31,52.0,127.67,66.31,7.74
victoria,75,BN,1562051596,62,89.28,5.28,115.24,89.6,5.82
mataura,100,NZ,1562051827,80,52.0,-46.19,168.86,52.0,1.01
busselton,59,AU,1562051828,57,63.12,-33.64,115.35,66.99,1.99
lipin bor,72,RU,1562051828,93,58.75,60.26,37.97,58.75,4.85
la ronge,40,CA,1562051828,93,42.8,55.1,-105.3,42.8,9.17
comodoro rivadavia,0,AR,1562051756,63,41.0,-45.87,-67.48,41.0,11.41
poya,33,NC,1562051829,72,73.69,-21.35,165.16,73.69,4.74
sechura,3,PE,1562051829,89,63.97,-5.56,-80.82,63.97,10.71
kuito,0,AO,1562051830,40,48.85,-12.38,16.94,48.85,3.78
new norfolk,20,AU,1562051830,66,46.35,-42.78,147.06,50.0,5.82
albany,1,US,1562051717,100,62.56,42.65,-73.75,66.0,3.36
nemuro,75,JP,1562051831,100,60.8,43.32,145.57,60.8,2.24
codrington,23,AU,1562051831,64,67.98,-28.95,153.24,69.8,1.12
dakar,48,SN,1562051831,88,74.34,14.69,-17.45,75.2,4.7
bluff,93,AU,1562051831,44,72.61,-23.58,149.07,72.61,10.54
te anau,99,NZ,1562051832,88,49.75,-45.41,167.72,49.75,2.44
sao miguel do araguaia,0,BR,1562051832,63,63.61,-13.28,-50.16,63.61,2.33
castro,40,CL,1562051833,93,37.4,-42.48,-73.76,37.4,6.93
sibolga,84,ID,1562051833,75,82.69,1.74,98.78,82.69,4.05
alberton,0,ZA,1562051833,69,42.98,-26.25,28.13,48.0,13.87
hermanus,92,ZA,1562051730,66,57.99,-34.42,19.24,63.0,11.01
thompson,90,CA,1562051838,93,50.0,55.74,-97.86,50.0,8.05
port hardy,75,CA,1562051740,93,51.8,50.7,-127.42,51.8,2.24
airai,83,TL,1562051839,52,85.03,-8.93,125.41,85.03,3.31
torbay,90,CA,1562051577,100,50.85,47.66,-52.73,53.01,4.7
longview,1,US,1562051839,100,72.41,32.5,-94.74,73.99,3.36
belmonte,2,PT,1562051840,74,63.0,40.36,-7.35,63.0,6.44
chuy,0,UY,1562051840,80,43.99,-33.69,-53.46,43.99,15.08
alofi,62,NU,1562051840,78,75.2,-19.06,-169.92,75.2,18.34
ust-maya,100,RU,1562051841,46,73.15,60.42,134.54,73.15,6.53
avarua,42,CK,1562051841,73,71.6,-21.21,-159.78,71.6,12.75
padang,29,ID,1562051841,74,82.69,-0.92,100.36,82.69,4.18
mount gambier,10,AU,1562051842,75,56.77,-37.83,140.78,56.77,15.79
saskylakh,62,RU,1562051842,51,50.29,71.97,114.09,50.29,15.52
vaini,75,IN,1562051842,69,80.6,15.34,74.49,80.6,13.87
georgetown,40,GY,1562051802,100,73.4,6.8,-58.16,73.4,4.7
machachi,75,EC,1562051843,87,52.88,-0.51,-78.57,55.4,3.36
port elizabeth,1,US,1562051843,82,66.72,39.31,-74.98,71.6,4.7
yellowknife,90,CA,1562051843,76,53.33,62.45,-114.38,53.6,19.46
carsamba,0,TR,1562051844,60,73.22,41.2,36.72,73.4,4.7
nanortalik,100,GL,1562051844,95,37.87,60.14,-45.24,37.87,2.53
garmsar,0,IR,1562051844,34,80.35,35.22,52.34,80.35,7.25
pisco,90,PE,1562051845,87,60.37,-13.71,-76.2,62.01,3.36
blythe,1,US,1562051845,14,90.45,33.61,-114.59,95.0,16.11
praya,20,ID,1562051845,66,86.0,-8.71,116.27,86.0,12.75
cabo san lucas,5,MX,1562051845,78,74.03,22.89,-109.91,75.99,2.24
aquiraz,40,BR,1562051846,78,75.7,-3.9,-38.39,77.0,9.17
cape town,90,ZA,1562051825,89,56.8,-33.93,18.42,60.01,5.99
thasos,0,GR,1562051846,57,79.99,40.78,24.71,81.0,4.7
altamira,92,BR,1562051846,77,73.33,-3.2,-52.21,73.33,1.86
iqaluit,5,CA,1562051847,86,37.22,63.75,-68.52,37.4,2.24
ilo,96,PE,1562051847,85,61.27,-17.65,-71.34,61.27,8.03
upernavik,28,GL,1562051847,84,39.49,72.79,-56.15,39.49,6.15
greenville,1,US,1562051825,83,70.56,34.85,-82.4,75.99,4.38
seymchan,100,RU,1562051848,27,76.57,62.93,152.39,76.57,6.91
atuona,0,PF,1562051848,77,80.53,-9.8,-139.03,80.53,15.03
nome,1,US,1562051732,100,75.9,30.04,-94.42,82.0,4.94
mar del plata,52,AR,1562051757,67,34.63,-46.43,-67.52,34.63,14.09
jumla,2,NP,1562051696,38,76.57,29.28,82.18,76.57,5.93
maragogi,7,BR,1562051849,93,69.01,-9.01,-35.22,69.01,1.01
carpentras,0,FR,1562051849,50,77.25,44.06,5.05,80.01,11.41
lubango,0,AO,1562051850,27,61.45,-14.92,13.49,61.45,3.29
lata,8,IN,1562051850,63,52.99,30.78,78.62,52.99,8.01
surt,0,LY,1562051850,68,76.21,31.21,16.59,76.21,6.4
boa vista,75,BR,1562051646,94,77.0,2.82,-60.67,77.0,3.36
hilo,90,US,1562051608,69,67.1,19.71,-155.08,77.0,3.36
ketchikan,1,US,1562051851,93,58.41,55.34,-131.65,60.8,5.82
karratha,0,AU,1562051851,14,84.49,-20.74,116.85,84.49,9.15
provideniya,90,RU,1562051852,87,46.4,64.42,-173.23,46.4,11.18
inhambane,20,MZ,1562051852,69,75.2,-23.87,35.38,75.2,12.75
dunedin,100,NZ,1562051852,82,51.01,-45.87,170.5,51.01,11.01
namatanai,68,PG,1562051853,82,79.45,-3.66,152.44,79.45,13.04
port lincoln,9,AU,1562051853,72,59.29,-34.72,135.86,59.29,5.93
adrar,0,DZ,1562051853,15,87.8,27.87,-0.29,87.8,9.17
srivardhan,100,IN,1562051853,78,81.97,18.03,73.02,81.97,6.96
lakatoro,13,VU,1562051854,66,76.75,-16.11,167.42,76.75,6.62
gornyak,0,KZ,1562051854,43,71.53,51.0,81.46,71.53,8.75
port macquarie,99,AU,1562051855,68,63.9,-31.43,152.91,64.99,5.82
talnakh,0,RU,1562051855,37,71.6,69.49,88.39,71.6,6.71
williston,20,US,1562051647,100,61.81,48.15,-103.62,64.99,9.17
nikolskoye,75,RU,1562051855,68,62.83,59.7,30.79,64.4,11.18
hasan abdal,20,IR,1562051856,31,64.4,36.62,48.54,64.4,19.46
norman wells,75,CA,1562051856,62,59.0,65.28,-126.83,59.0,3.36
zhangjiakou,36,CN,1562051856,38,72.25,40.77,114.88,72.25,13.27
neuquen,81,AR,1562051856,69,45.25,-38.95,-68.06,45.25,16.69
huaicheng,89,CN,1562051857,53,94.75,23.91,112.19,94.75,3.27
parabel,4,RU,1562051857,42,83.05,58.71,81.5,83.05,9.08
nioki,79,CD,1562051857,71,75.67,-2.72,17.69,75.67,2.55
shediac,90,CA,1562051858,100,53.78,46.22,-64.55,54.0,5.82
kodiak,1,US,1562051858,83,75.9,39.95,-94.76,80.01,5.82
coahuayana,61,MX,1562051858,87,71.35,18.62,-100.35,71.35,1.59
stavrovo,36,RU,1562051858,70,66.85,56.13,40.01,66.85,14.38
kruisfontein,40,ZA,1562051859,63,47.77,-34.0,24.73,47.77,12.01
mahebourg,40,MU,1562051859,60,73.76,-20.41,57.7,73.99,13.87
westport,1,US,1562051766,93,66.51,41.14,-73.36,72.0,2.89
sao filipe,0,CV,1562051860,88,72.25,14.9,-24.5,72.25,22.35
hobyo,100,SO,1562051860,54,85.57,5.35,48.53,85.57,21.68
lebu,93,ET,1562051860,72,62.53,8.96,38.73,62.53,3.18
darfield,100,NZ,1562051861,81,53.78,-43.49,172.11,57.99,9.17
carnarvon,0,ZA,1562051861,95,32.83,-30.97,22.13,32.83,7.18
pevek,96,RU,1562051861,96,33.55,69.7,170.27,33.55,3.49
filadelfia,100,PY,1562051862,88,56.05,-22.35,-60.04,56.05,2.17
sena madureira,0,BR,1562051862,73,72.79,-9.07,-68.66,72.79,0.51
shawville,100,CA,1562051862,75,68.0,45.61,-76.49,69.01,5.35
grand gaube,40,MU,1562051863,60,73.71,-20.01,57.66,73.99,13.87
qasigiannguit,100,GL,1562051863,39,48.2,68.82,-51.19,48.2,16.11
bredasdorp,40,ZA,1562051863,51,61.45,-34.53,20.04,63.0,11.41
ankang,98,CN,1562051864,42,85.39,32.73,108.99,85.39,6.29
soyo,98,AO,1562051864,79,72.79,-6.13,12.37,72.79,8.68
marquette,90,US,1562051773,100,58.06,46.54,-87.4,61.0,3.42
fairbanks,1,US,1562051864,52,59.13,64.84,-147.72,64.4,4.7
mnogovershinnyy,67,RU,1562051865,49,67.93,53.94,139.92,67.93,4.88
faanui,82,PF,1562051865,79,78.19,-16.48,-151.75,78.19,25.68
hare bay,90,CA,1562051865,100,48.63,48.86,-53.99,50.0,14.99
kumano,75,JP,1562051865,69,74.25,34.34,132.59,77.0,2.24
tabou,94,CI,1562051866,96,73.33,4.42,-7.36,73.33,2.59
zhicheng,63,CN,1562051866,18,100.51,35.04,112.59,100.51,10.11
namtsy,20,RU,1562051866,35,69.8,62.72,129.66,69.8,11.18
weiser,40,US,1562051867,43,66.96,44.25,-116.97,71.6,27.51
ochamchira,7,GE,1562051867,63,70.45,42.71,41.47,70.45,5.06
fare,84,PF,1562051867,80,77.11,-16.7,-151.02,77.11,27.89
phuntsholing,85,IN,1562051867,90,76.57,26.86,89.38,76.57,4.12
hithadhoo,100,MV,1562051868,73,83.77,-0.6,73.08,83.77,8.1
ribeira grande,75,PT,1562051868,94,69.8,38.52,-28.7,69.8,3.36
kisaran,99,ID,1562051868,42,95.29,2.98,99.62,95.29,3.11
arraial do cabo,17,BR,1562051869,84,73.51,-22.97,-42.02,73.51,10.31
bandiagara,0,ML,1562051869,66,86.0,14.35,-3.61,86.0,16.11
mungwi,0,ZM,1562051869,67,61.27,-10.17,31.37,61.27,5.66
yeppoon,0,AU,1562051869,44,75.2,-23.13,150.74,75.2,8.05
puyang,0,CN,1562051870,13,107.17,35.76,115.02,107.17,13.65
ampanihy,0,MG,1562051870,32,77.11,-24.69,44.75,77.11,10.69
kayerkan,0,RU,1562051870,37,71.6,69.35,87.76,71.6,6.71
juybar,90,IR,1562051871,88,69.8,36.64,52.91,69.8,9.17
mehamn,0,NO,1562051871,76,51.8,71.03,27.85,51.8,8.05
teeli,100,RU,1562051871,58,57.13,51.01,90.2,57.13,6.13
srednekolymsk,93,RU,1562051872,37,68.29,67.46,153.71,68.29,20.02
boa esperanca do sul,2,BR,1562051872,74,62.71,-21.99,-48.39,62.71,1.43
ostrovnoy,93,RU,1562051872,63,56.23,68.05,39.51,56.23,14.16
russell,1,US,1562051664,69,72.55,38.9,-98.86,75.2,8.05
katsuura,75,JP,1562051873,73,77.34,33.93,134.5,78.01,4.7
qaanaaq,0,GL,1562051873,44,47.59,77.48,-69.36,47.59,11.12
uglich,11,RU,1562051873,79,63.43,57.53,38.32,63.43,15.79
lewistown,1,US,1562051874,88,76.01,40.39,-90.15,79.0,6.93
vestmannaeyjar,0,IS,1562051874,75,46.4,63.44,-20.27,46.4,9.17
east london,0,ZA,1562051874,47,57.2,-33.02,27.91,57.2,9.17
bida,99,NG,1562051874,94,74.59,9.08,6.02,74.59,3.44
stokmarknes,40,NO,1562051875,66,49.62,68.56,14.91,50.0,4.7
ladario,0,PT,1562051875,98,61.21,40.7,-7.74,64.99,4.0
college,1,US,1562051875,52,59.49,64.86,-147.8,64.4,4.7
rio gallegos,75,AR,1562051724,74,35.6,-51.62,-69.22,35.6,12.75
davila,75,PH,1562051876,70,87.8,18.47,120.58,87.8,17.22
mackay,1,CA,1562051876,93,42.8,53.65,-115.58,42.8,6.78
tiksi,100,RU,1562051876,84,37.87,71.64,128.87,37.87,12.44
male,61,UA,1562051877,78,70.99,50.74,33.7,70.99,8.88
gemena,100,CD,1562051877,97,71.71,3.25,19.78,71.71,2.46
mikhaylovka,71,RU,1562051877,40,82.15,52.96,103.29,82.15,14.56
pacifica,90,US,1562051878,87,55.83,37.61,-122.49,59.0,9.17
sitka,28,US,1562051878,78,70.0,37.17,-99.65,70.0,1.99
kuytun,42,RU,1562051878,44,80.35,54.34,101.51,80.35,13.53
tura,71,RU,1562051879,44,75.31,64.27,100.22,75.31,15.32
kerewan,75,GM,1562051879,88,78.8,13.49,-16.09,78.8,6.93
saint-philippe,90,CA,1562051879,68,68.74,45.36,-73.48,70.0,11.41
wenatchee,1,US,1562051817,35,65.64,47.42,-120.31,73.4,14.99
fort nelson,40,CA,1562051880,67,59.0,58.81,-122.69,59.0,3.36
merritt island,1,US,1562051880,83,78.62,28.54,-80.67,82.0,4.7
severo-kurilsk,100,RU,1562051880,89,46.15,50.68,156.12,46.15,6.98
eyl,69,SO,1562051881,50,85.75,7.98,49.82,85.75,32.3
jose bonifacio,0,BR,1562051881,72,64.4,-21.05,-49.69,64.4,3.89
beringovskiy,100,RU,1562051881,78,49.93,63.05,179.32,49.93,5.28
komsomolskiy,99,RU,1562051881,60,66.13,67.55,63.78,66.13,11.36
labuhan,97,ID,1562051882,44,93.31,-2.54,115.51,93.31,1.43
port alfred,0,ZA,1562051882,59,57.99,-33.59,26.89,57.99,10.0
deputatskiy,51,RU,1562051883,60,51.01,69.3,139.9,51.01,11.07
bilibino,100,RU,1562051883,86,43.99,68.06,166.44,43.99,1.92
prainha,97,BR,1562051883,90,74.23,-1.8,-53.48,74.23,1.77
presidencia roque saenz pena,100,AR,1562051884,78,48.49,-26.79,-60.44,48.49,4.45
yushu,54,CN,1562051884,37,84.85,44.84,126.53,84.85,14.7
verkhnevilyuysk,98,RU,1562051884,34,65.59,63.45,120.31,65.59,9.13
taltal,100,CL,1562051885,80,48.85,-25.41,-70.49,48.85,0.58
kahului,20,US,1562051885,65,75.02,20.89,-156.47,80.6,12.75
areosa,90,PT,1562051885,100,63.55,41.72,-8.86,68.0,10.69
shimoda,75,JP,1562051885,100,75.13,34.7,138.93,78.8,17.22
acapulco,75,MX,1562051886,83,82.4,16.86,-99.88,82.4,3.83
duluth,1,US,1562051861,100,62.53,46.77,-92.13,68.0,4.7
harper,90,US,1562051886,83,73.17,30.3,-99.24,75.0,8.05
havre,1,US,1562051685,71,52.0,48.55,-109.68,57.2,6.93
meadow lake,67,CA,1562051887,80,44.53,54.13,-108.44,44.53,6.62
san patricio,100,PY,1562051887,90,51.01,-26.98,-56.83,51.01,2.33
myatlevo,0,RU,1562051887,56,69.8,54.9,35.68,69.8,15.66
ilulissat,100,GL,1562051882,39,48.2,69.22,-51.1,48.2,16.11
hasaki,75,JP,1562051888,78,81.28,35.73,140.83,82.4,3.36
puerto ayacucho,98,CO,1562051888,93,74.23,5.66,-67.63,74.23,6.53
los llanos de aridane,75,ES,1562051888,64,71.6,28.66,-17.92,71.6,16.11
akonolinga,80,CM,1562051889,96,67.03,3.77,12.24,67.03,3.27
chernushka,100,RU,1562051889,94,61.27,56.5,56.08,61.27,9.82
socuellamos,0,ES,1562051889,66,69.01,39.29,-2.79,69.01,1.99
mansar,0,PK,1562051890,25,100.4,33.9,72.31,100.4,9.17
bethel,90,US,1562051890,100,52.48,60.79,-161.76,53.6,11.41
narsaq,75,GL,1562051890,87,44.6,60.91,-46.05,44.6,6.93
mahibadhoo,100,MV,1562051890,63,83.95,3.78,72.97,83.95,6.13
sabang,100,PH,1562051891,94,76.75,13.8,121.11,76.75,1.86
vila franca do campo,20,PT,1562051891,88,64.4,37.72,-25.43,64.4,2.24
tigil,84,RU,1562051892,76,54.61,57.8,158.67,54.61,9.28
pskov,40,RU,1562051892,68,64.4,57.82,28.33,64.4,11.18
ponta do sol,0,BR,1562051892,69,58.21,-20.63,-46.0,58.21,2.62
jensen beach,1,US,1562051892,78,79.3,27.25,-80.23,82.4,8.05
northam,40,AU,1562051640,45,68.0,-31.65,116.67,68.0,4.7
west bay,75,CA,1562051893,63,62.71,49.34,-123.21,66.0,11.41
tiznit,1,MA,1562051893,92,65.23,29.7,-9.73,65.23,7.67
bambous virieux,40,MU,1562051893,60,73.76,-20.34,57.76,73.99,13.87
pangnirtung,75,CA,1562051894,42,47.59,66.15,-65.72,47.59,1.66
zabrani,0,RO,1562051894,74,81.5,46.07,21.55,84.99,5.82
kallaste,40,EE,1562051894,72,63.54,58.66,27.16,64.4,13.87
general roca,71,AR,1562051895,69,45.43,-39.03,-67.58,45.43,13.38
kavaratti,40,IN,1562051895,74,87.8,10.57,72.64,87.8,11.41
marsa matruh,40,EG,1562051895,74,80.6,31.35,27.25,80.6,3.36
wanning,75,AT,1562051895,77,67.75,48.64,13.53,70.0,13.87
fuling,2,CN,1562051896,45,91.87,29.71,107.39,91.87,2.64
rio branco,0,BR,1562051647,94,71.6,-9.98,-67.82,71.6,2.24
maceio,40,BR,1562051896,94,69.8,-9.67,-35.74,69.8,3.36
grindavik,0,IS,1562051897,66,48.2,63.84,-22.43,48.2,4.7
puerto montt,75,CL,1562051897,93,41.0,-41.47,-72.94,41.0,8.1
albury,90,AU,1562051897,66,51.89,-36.08,146.92,53.6,5.82
devonport,97,AU,1562051898,64,50.99,-41.18,146.36,52.0,5.01
longyearbyen,75,NO,1562051898,75,46.4,78.22,15.63,46.4,20.8
pascagoula,1,US,1562051898,88,76.71,30.37,-88.56,82.0,3.13
gambela,85,ET,1562051899,84,71.53,8.25,34.59,71.53,3.0
aksarka,15,RU,1562051899,37,81.79,66.56,67.8,81.79,14.07
okhotsk,49,RU,1562051899,63,59.47,59.36,143.24,59.47,20.04
shingu,75,JP,1562051899,94,71.6,33.72,135.99,71.6,3.36
tasiilaq,92,GL,1562051900,68,35.89,65.61,-37.64,35.89,6.24
isangel,75,VU,1562051900,73,77.0,-19.55,169.27,77.0,4.7
samarai,41,PG,1562051900,72,77.11,-10.62,150.67,77.11,7.25
husavik,0,CA,1562051901,40,65.71,50.56,-96.99,69.01,5.99
khatanga,44,RU,1562051901,31,60.01,71.98,102.47,60.01,5.12
vila,0,IT,1562051902,57,77.23,45.18,8.4,81.0,9.17
cap-aux-meules,100,CA,1562051902,96,52.09,47.38,-61.86,52.09,21.05
amuntai,84,ID,1562051902,37,98.17,-2.42,115.25,98.17,1.25
rodrigues alves,19,BR,1562051902,87,71.89,-7.74,-72.65,71.89,1.45
tacna,90,PE,1562051903,87,60.22,-18.01,-70.25,62.6,3.36
inzer,100,RU,1562051903,97,60.01,54.22,57.56,60.01,3.67
oussouye,40,SN,1562051903,94,77.88,12.49,-16.54,78.8,2.24
morant bay,20,JM,1562051634,74,82.4,17.88,-76.41,82.4,8.05
taoudenni,0,ML,1562051904,12,90.43,22.68,-3.98,90.43,3.33
pailon,75,BO,1562051706,82,60.8,-17.66,-62.72,60.8,8.05
vangaindrano,1,MG,1562051904,81,68.83,-23.35,47.6,68.83,4.43
chicama,90,PE,1562051905,88,64.4,-7.84,-79.15,64.4,9.17
el alto,20,BO,1562051905,86,30.2,-16.5,-68.19,30.2,2.24
laguna,40,BZ,1562051905,94,78.8,16.17,-88.94,78.8,1.92
gat,45,SN,1562051906,88,73.4,14.69,-16.54,73.4,4.7
zhanakorgan,100,KZ,1562051906,62,75.67,43.91,67.25,75.67,17.52
pizhma,0,RU,1562051906,54,66.31,57.86,47.12,66.31,6.96
dudinka,0,RU,1562051907,37,71.6,69.41,86.18,71.6,6.71
bathsheba,40,BB,1562051907,78,80.6,13.22,-59.52,80.6,12.75
breves,95,BR,1562051907,86,74.05,-1.68,-50.48,74.05,2.1
ous,100,RU,1562051908,43,74.23,60.91,61.52,74.23,9.01
port blair,75,IN,1562051633,79,86.0,11.67,92.75,86.0,11.41
muhos,0,FI,1562051908,67,59.99,64.81,26.0,61.0,9.17
pahrump,1,US,1562051908,9,80.89,36.21,-115.98,84.2,3.36
san pedro,0,AR,1562051778,87,43.66,-33.68,-59.66,45.0,3.0
constitucion,76,MX,1562051909,65,61.0,23.99,-104.67,61.0,7.0
fort-shevchenko,14,KZ,1562051909,60,74.05,44.51,50.26,74.05,24.65
port augusta,0,AU,1562051909,59,60.49,-32.49,137.76,60.8,8.05
kijang,75,KR,1562051875,61,82.4,35.24,129.21,82.4,10.29
santa vitoria,57,BR,1562051910,76,71.53,-7.82,-67.03,71.53,1.23
biak,100,ID,1562051910,91,67.75,-0.91,122.88,67.75,1.54
celestun,35,MX,1562051910,76,82.33,20.87,-90.4,82.33,16.93
fortuna,90,US,1562051911,100,56.39,40.6,-124.16,59.0,8.05
marsh harbour,15,BS,1562051630,71,83.77,26.54,-77.06,83.77,8.19
broome,0,GB,1562051911,82,59.34,52.47,1.45,64.0,5.82
charlestown,1,US,1562051911,88,66.47,41.38,-71.64,71.6,9.17
oksfjord,75,NO,1562051912,100,46.58,70.24,22.35,48.2,16.11
saint-joseph,0,FR,1562051912,61,80.51,43.56,6.97,84.2,2.24
chifeng,80,CN,1562051912,30,76.21,42.27,118.96,76.21,5.44
nalut,1,LY,1562051913,81,70.45,31.86,10.98,70.45,12.57
galesong,40,ID,1562051913,79,84.2,-5.32,119.37,84.2,4.7
laranja da terra,0,BR,1562051913,85,59.11,-19.9,-41.06,59.11,1.57
naron,90,ES,1562051913,87,60.1,43.52,-8.15,63.0,12.75
svarstad,90,NO,1562051914,81,53.49,59.4,9.97,55.0,13.87
pakxan,88,LA,1562051914,84,82.51,18.39,103.66,82.51,3.33
idritsa,25,RU,1562051914,77,61.27,56.33,28.9,61.27,11.48
awbari,0,LY,1562051915,29,80.35,26.59,12.77,80.35,16.89
biloela,100,AU,1562051915,52,70.63,-24.4,150.51,70.63,10.13
miramar,94,CR,1562051915,1,68.65,10.09,-84.73,70.0,24.0
clyde river,75,CA,1562051915,80,41.0,70.47,-68.59,41.0,25.28
souillac,0,FR,1562051916,68,65.55,45.6,-0.6,70.0,4.7
ha giang,96,VN,1562051916,64,81.43,22.83,104.99,81.43,4.59
kulu,100,CD,1562051916,97,70.63,3.47,23.69,70.63,1.95
lasa,0,CY,1562051917,58,84.76,34.92,32.53,86.0,10.29
puerto colombia,0,CO,1562051917,83,80.6,10.99,-74.96,80.6,8.05
ponta delgada,20,PT,1562051917,88,64.4,37.73,-25.67,64.4,2.24
udimskiy,0,RU,1562051917,52,63.79,61.14,45.92,63.79,7.99
batouri,96,CM,1562051918,96,67.75,4.44,14.36,67.75,1.99
bastia,0,IT,1562051918,83,77.77,44.6,8.98,80.01,9.17
vitim,72,RU,1562051918,32,85.21,59.44,112.57,85.21,5.73
sampit,84,ID,1562051919,55,90.61,-2.54,112.95,90.61,3.24
macaubas,0,BR,1562051919,72,64.15,-13.02,-42.7,64.15,3.33
berlevag,75,NO,1562051919,71,51.19,70.86,29.09,51.8,6.93
brae,20,GB,1562051920,66,50.0,60.4,-1.35,50.0,11.41
salekhard,62,RU,1562051920,36,81.79,66.54,66.62,81.79,13.29
itoman,20,JP,1562051920,74,90.39,26.12,127.67,93.2,16.11
byadgi,100,IN,1562051920,71,78.73,14.68,75.48,78.73,12.8
raudeberg,40,NO,1562051921,75,46.24,61.99,5.14,46.99,8.05
tananger,40,NO,1562051921,66,50.29,58.94,5.59,51.8,20.8
ngunguru,53,NZ,1562051921,91,60.01,-35.62,174.5,60.01,7.0
fillan,75,NO,1562051922,87,46.51,63.6,8.98,48.0,17.22
lompoc,1,US,1562051831,93,55.51,34.64,-120.46,62.01,17.58
leningradskiy,100,RU,1562051922,96,39.13,69.38,178.42,39.13,4.97
salym,1,RU,1562051923,35,78.55,60.06,71.48,78.55,6.26
richards bay,0,ZA,1562051923,51,66.85,-28.77,32.06,66.85,11.72
cockburn town,53,TC,1562051878,82,80.35,21.46,-71.14,80.35,12.06
aviles,75,ES,1562051654,93,61.79,43.55,-5.92,64.0,6.93
port hedland,0,AU,1562051924,16,86.0,-20.31,118.58,86.0,11.41
camacha,75,PT,1562051924,72,69.04,33.08,-16.33,69.8,14.99
aklavik,90,CA,1562051925,93,50.0,68.22,-135.01,50.0,11.41
havre-saint-pierre,20,CA,1562051925,87,51.8,50.23,-63.6,51.8,8.05
solnechnyy,15,RU,1562051925,36,76.21,50.72,136.64,76.21,5.68
quelimane,90,MZ,1562051926,94,73.4,-17.88,36.89,73.4,3.36
luis correia,25,BR,1562051926,96,70.27,-2.88,-41.67,70.27,4.74
beloha,0,MG,1562051926,38,73.87,-25.17,45.06,73.87,9.44
svetlaya,100,RU,1562051927,79,54.97,46.54,138.33,54.97,4.23
turki,77,RU,1562051927,77,74.77,51.98,43.27,74.77,15.66
teculutan,55,GT,1562051927,1,72.0,14.98,-89.72,72.0,2.84
morehead,90,US,1562051928,88,72.09,38.18,-83.43,75.0,4.7
chapais,40,CA,1562051928,100,55.4,49.78,-74.86,55.4,9.17
rzhyshchiv,0,UA,1562051928,57,77.25,49.97,31.05,80.01,2.24
carai,25,BR,1562051928,81,59.83,-17.19,-41.69,59.83,1.57
poum,0,MK,1562051929,60,73.4,41.28,20.71,73.4,1.21
huaibei,1,CN,1562051929,25,96.55,33.96,116.79,96.55,7.58
montepuez,64,MZ,1562051929,77,72.07,-13.13,39.0,72.07,5.66
muroto,75,JP,1562051930,83,75.2,33.37,134.14,75.2,4.7
buala,88,SB,1562051930,79,81.61,-8.15,159.59,81.61,4.81
bull savanna,35,JM,1562051930,84,80.17,17.89,-77.59,80.17,6.24
namibe,0,AO,1562051930,72,68.83,-15.19,12.15,68.83,6.89
huilong,50,CN,1562051931,49,89.89,31.15,106.5,89.89,3.53
langenburg,50,CA,1562051931,97,56.77,50.84,-101.7,56.77,5.88
klaksvik,74,FO,1562051931,75,44.6,62.23,-6.59,44.6,14.99
nuuk,0,GL,1562051931,93,37.4,64.17,-51.74,37.4,8.05
port-gentil,75,GA,1562051932,83,75.2,-0.72,8.78,75.2,12.75
nabire,56,ID,1562051932,81,79.63,-3.36,135.5,79.63,3.74
pital,85,CO,1562051932,94,54.97,2.27,-75.81,54.97,2.95
skjervoy,75,NO,1562051933,100,47.34,70.03,20.97,48.2,16.11
mumford,86,GH,1562051933,95,74.59,5.26,-0.76,74.59,2.82
tiarei,75,PF,1562051933,73,77.0,-17.53,-149.33,77.0,2.24
iwanai,96,JP,1562051934,92,58.93,42.97,140.51,58.93,5.68
bodaybo,31,RU,1562051934,32,83.77,57.85,114.2,83.77,5.59
touros,20,BR,1562051934,100,69.8,-5.2,-35.46,69.8,4.7
cherskiy,85,RU,1562051888,62,52.63,68.75,161.3,52.63,10.92
osa,100,RU,1562051935,98,57.67,57.28,55.46,57.67,10.25
yenagoa,100,NG,1562051935,96,74.59,4.92,6.26,74.59,2.84
pau dos ferros,79,BR,1562051935,82,70.81,-6.11,-38.21,70.81,6.4
necochea,86,AR,1562051756,72,46.0,-38.55,-58.74,46.0,10.0
termiz,0,AF,1562051936,16,97.61,37.23,67.28,100.4,9.17
north mankato,90,US,1562051936,94,69.31,44.17,-94.03,70.0,4.29
santiago,100,PH,1562051937,85,76.93,16.69,121.54,76.93,2.98
lorengau,9,PG,1562051937,76,82.33,-2.02,147.27,82.33,6.35
katangli,18,RU,1562051937,77,47.23,51.71,143.23,47.23,16.53
clarence town,0,AU,1562051938,67,59.81,-32.59,151.78,63.0,5.82
novyy urgal,79,RU,1562051938,42,78.37,51.07,132.56,78.37,10.04
okha,3,RU,1562051938,65,53.53,53.59,142.95,53.53,16.78
saint-augustin,90,CA,1562051939,68,68.49,45.63,-73.98,69.01,12.75
esil,98,KZ,1562051939,56,72.79,51.96,66.41,72.79,22.48
buckeye,1,US,1562051848,13,89.91,33.37,-112.58,95.0,6.13
atar,0,MR,1562051939,29,88.27,20.52,-13.05,88.27,6.62
semenivka,96,UA,1562051940,82,62.53,52.18,32.58,62.53,8.9
vung tau,100,VN,1562051940,78,85.03,10.35,107.08,85.03,11.86
saldanha,0,PT,1562051940,70,63.07,41.42,-6.55,63.07,6.29
kuusamo,20,FI,1562051930,71,57.2,65.96,29.19,57.2,2.24
gra liyia,0,GR,1562051941,53,79.34,35.02,25.68,81.0,4.7
ewa beach,1,US,1562051941,65,77.4,21.32,-158.01,80.6,11.41
hanna,100,CA,1562051941,83,43.77,51.64,-111.93,45.0,8.99
isla vista,1,US,1562051942,87,59.09,34.41,-119.86,68.0,7.52
saint-georges,96,CA,1562051698,100,64.38,46.12,-70.67,66.0,1.01
vostok,100,RU,1562051943,86,62.35,46.45,135.83,62.35,2.42
ust-nera,99,RU,1562051943,68,54.43,64.57,143.24,54.43,10.58
jining,0,CN,1562051943,17,103.03,35.41,116.58,103.03,9.51
springdale,1,US,1562051808,88,70.11,36.19,-94.13,73.4,6.15
labuan,75,BN,1562051921,62,89.28,5.28,115.24,89.6,5.82
gigmoto,100,PH,1562051944,70,83.59,13.78,124.39,83.59,10.49
coquimbo,0,CL,1562051944,93,42.8,-29.95,-71.34,42.8,4.7
tuatapere,100,NZ,1562051945,80,52.0,-46.13,167.69,52.0,1.01
pringsewu,62,ID,1562051945,63,83.23,-5.36,104.98,83.23,6.04
jodhpur,34,IN,1562051945,40,99.25,26.3,73.04,99.25,10.33
saint-pierre,0,FR,1562051945,77,61.83,48.95,4.24,64.4,10.29
pastavy,7,BY,1562051946,75,61.63,55.11,26.84,61.63,14.09
cayenne,90,GF,1562051869,100,73.4,4.94,-52.33,73.4,2.24
yumen,86,CN,1562051946,11,92.77,40.29,97.04,92.77,8.84
ancud,40,CL,1562051887,93,37.4,-41.87,-73.83,37.4,6.93
akhnur,0,IN,1562051947,24,102.2,32.87,74.73,102.2,6.93
atambua,90,ID,1562051947,66,80.71,-9.11,124.89,80.71,5.55
coihaique,0,CL,1562051721,99,35.6,-45.58,-72.07,35.6,5.82
mundo nuevo,0,CL,1562051947,81,44.6,-32.72,-71.41,44.6,5.82
coro,100,VE,1562051948,81,78.73,11.41,-69.67,78.73,19.46
cayeli,0,TR,1562051948,49,70.27,41.09,40.73,70.27,3.53
porto walter,27,BR,1562051948,86,72.61,-8.27,-72.74,72.61,1.63
san quintin,100,PH,1562051949,80,81.79,17.54,120.52,81.79,10.94
vila velha,40,BR,1562051949,78,75.87,-3.71,-38.6,77.0,9.17
tarana,42,AU,1562051949,30,52.0,-33.53,149.91,52.0,5.99
nouadhibou,0,MR,1562051949,77,69.8,20.93,-17.03,69.8,16.11
bougouni,36,ML,1562051950,74,76.57,11.42,-7.49,76.57,3.42
sarakhs,1,TM,1562051950,41,84.31,36.54,61.16,84.31,23.78
nunkini,38,MX,1562051950,70,82.51,20.4,-90.15,82.51,13.38
vrises,0,GR,1562051951,61,80.82,35.49,23.89,82.99,6.93
mitu,0,IR,1562051951,32,69.01,36.2,46.09,69.01,13.91
katobu,100,ID,1562051951,98,72.79,-4.94,122.53,72.79,6.31
monrovia,75,LR,1562051951,100,75.2,6.33,-10.8,75.2,3.09
japura,88,ID,1562051952,54,91.69,-0.42,102.29,91.69,2.64
quang ngai,100,VN,1562051855,96,78.19,15.12,108.8,78.19,1.07
floro,40,NO,1562051952,75,45.66,61.6,5.03,46.99,8.05
ouesso,100,CG,1562051952,92,72.43,1.61,16.05,72.43,1.74
sur,0,OM,1562051953,31,99.79,22.57,59.53,99.79,3.06
nioro,74,GM,1562051953,75,77.29,13.79,-15.05,77.29,7.16
joensuu,0,FI,1562051953,52,67.06,62.6,29.76,68.0,5.82
hualmay,98,PE,1562051954,89,62.71,-11.1,-77.61,62.71,15.97
merauke,33,ID,1562051954,77,77.11,-8.49,140.4,77.11,20.36
caravelas,13,BR,1562051954,93,70.99,-17.73,-39.27,70.99,5.99
hambantota,75,LK,1562051955,79,87.8,6.12,81.12,87.8,12.75
kipini,20,KE,1562051955,72,82.4,-2.53,40.53,82.4,4.7
west odessa,1,US,1562051955,50,78.87,31.84,-102.48,80.6,16.11
gamba,44,CN,1562051955,28,59.65,28.28,88.52,59.65,7.56
suntar,99,RU,1562051956,70,61.99,62.16,117.65,61.99,6.15
houma,46,CN,1562051956,17,97.81,35.63,111.36,97.81,9.78
lazaro cardenas,0,MX,1562051956,24,78.37,28.39,-105.62,78.37,8.28
pervomayskoye,0,RU,1562051957,59,77.29,57.07,86.23,77.29,4.43
ca mau,97,VN,1562051919,73,85.75,9.18,105.15,85.75,12.1
vredendal,38,ZA,1562051957,85,54.79,-31.68,18.49,54.79,18.41
taldan,69,RU,1562051957,38,72.07,53.69,124.82,72.07,10.6
strezhevoy,0,RU,1562051958,47,78.8,60.73,77.6,78.8,2.24
el tigre,100,VE,1562051958,82,75.67,8.89,-64.25,75.67,14.54
makakilo city,1,US,1562051958,65,77.41,21.35,-158.09,80.6,11.41
yulara,0,AU,1562051959,17,77.0,-25.24,130.99,77.0,6.93
gela,20,IT,1562051959,73,76.98,37.07,14.25,80.01,2.24
rocha,0,UY,1562051959,68,43.09,-34.48,-54.34,43.09,16.22
havelock,1,US,1562051774,78,72.27,34.88,-76.9,75.99,2.93
villa carlos paz,0,AR,1562051960,56,41.95,-31.42,-64.5,42.8,6.93
monywa,100,MM,1562051960,59,87.19,22.12,95.13,87.19,12.62
yagodnoye,89,RU,1562051961,30,72.61,62.52,149.63,72.61,12.1
maple creek,65,CA,1562051961,82,51.37,49.91,-109.46,51.37,7.05
batticaloa,100,LK,1562051961,31,97.45,7.71,81.69,97.45,5.28
hohhot,40,CN,1562051962,56,69.8,40.81,111.65,69.8,2.24
zhuanghe,82,CN,1562051962,43,78.91,39.7,122.97,78.91,5.7
alice,0,ZA,1562051962,64,45.79,-32.79,26.83,45.79,8.46
veraval,0,FR,1562051962,82,62.01,49.65,0.71,64.99,5.82
tautira,75,PF,1562051963,73,77.0,-17.73,-149.15,77.0,2.24
dunmore town,19,BS,1562051963,70,83.05,25.5,-76.65,83.05,4.43
ornskoldsvik,31,SE,1562051963,50,51.8,63.29,18.72,51.8,17.22
sobolevo,50,RU,1562051964,76,61.81,54.43,31.9,61.81,11.45
natal,20,BR,1562051964,100,69.8,-5.81,-35.21,69.8,4.7
luderitz,0,NA,1562051964,87,46.4,-26.65,15.16,46.4,1.12
suzhou,96,CN,1562051965,29,85.57,31.3,120.58,91.0,9.01
roanoke rapids,1,US,1562051879,100,65.16,36.46,-77.65,69.01,2.82
luganville,40,VU,1562051938,78,77.0,-15.51,167.18,77.0,2.24
mayya,20,RU,1562051965,35,69.8,61.74,130.28,69.8,11.18
broken hill,0,AU,1562051966,23,60.8,-31.97,141.45,60.8,9.17
olginskaya,0,RU,1562051966,58,79.09,45.94,38.55,79.09,13.4
gansing,75,AT,1562051966,77,67.64,48.3,13.54,71.01,13.87
burlington,75,CA,1562051967,77,70.86,43.32,-79.8,73.99,6.93
saint-denis,0,FR,1562051967,72,62.6,48.94,2.36,66.0,4.7
thohoyandou,0,ZA,1562051967,34,51.19,-22.97,30.46,51.19,1.63
takoradi,99,GH,1562051967,94,75.49,4.89,-1.75,75.49,1.88
inuvik,90,CA,1562051968,87,50.0,68.36,-133.71,50.0,9.17
nantucket,1,US,1562051968,88,66.92,41.28,-70.1,70.0,4.7
mwanza,0,TZ,1562051969,53,71.6,-2.52,32.9,71.6,14.99
miyako,75,JP,1562051969,78,76.86,33.63,130.94,79.0,4.7
modasa,25,IN,1562051782,58,91.87,23.47,73.3,91.87,9.46
simpang,47,ID,1562051969,40,93.31,4.36,96.17,93.31,4.38
jizan,20,SA,1562051970,53,98.6,16.89,42.56,98.6,8.05
nakamura,75,JP,1562051970,83,80.49,35.17,136.87,84.0,8.05
ahipara,64,NZ,1562051951,80,61.09,-35.17,173.16,61.09,14.56
phan thiet,100,VN,1562051970,67,84.49,10.93,108.1,84.49,12.46
amparafaravola,22,MG,1562051971,78,60.01,-17.68,48.22,60.01,11.32
ternate,90,PH,1562051971,66,86.95,14.29,120.72,87.8,6.93
klyuchi,0,RU,1562051971,44,72.79,52.25,79.17,72.79,6.13
bud,75,NO,1562051972,76,44.64,62.91,6.91,48.99,20.8
beaverlodge,20,CA,1562051972,81,48.2,55.21,-119.43,48.2,11.41
sambava,0,MG,1562051972,55,73.15,-14.27,50.17,73.15,4.63
dubbo,88,AU,1562051972,38,59.0,-32.25,148.6,59.0,4.7
general artigas,0,PY,1562051973,93,53.6,-26.93,-56.22,53.6,3.36
caconda,0,AO,1562051973,38,49.21,-13.73,15.06,49.21,3.47
thinadhoo,95,MV,1562051808,68,83.59,0.53,72.93,83.59,5.01
meulaboh,69,ID,1562051973,73,82.69,4.14,96.13,82.69,1.68
archidona,75,EC,1562051974,92,58.93,-0.91,-77.81,58.93,4.32
kabo,100,CF,1562051974,94,70.81,7.69,18.62,70.81,3.02
kununurra,17,AU,1562051974,19,87.8,-15.77,128.74,87.8,8.05
pombas,0,BR,1562051975,56,64.33,-15.9,-54.74,64.33,2.06
santa maria,0,BR,1562051975,82,53.73,-16.02,-48.01,57.2,2.68
ryotsu,79,JP,1562051975,73,78.12,38.08,138.43,78.8,5.82
ibra,0,OM,1562051975,6,105.73,22.69,58.55,105.73,9.98
champerico,100,MX,1562051976,95,68.65,16.38,-93.6,68.65,3.44
sooke,20,CA,1562051976,82,56.3,48.37,-123.73,63.0,8.05
wilmington,1,US,1562051892,82,64.47,39.75,-75.55,70.0,5.17
berdigestyakh,76,RU,1562051977,29,66.67,62.1,126.7,66.67,13.06
palmer,75,AU,1562051977,82,57.33,-34.85,139.16,60.01,3.36
kutum,71,SD,1562051977,54,79.09,14.2,24.66,79.09,6.4
terrace bay,0,CA,1562051978,70,56.95,48.78,-87.1,56.95,1.59
yar-sale,5,RU,1562051978,43,81.97,66.83,70.83,81.97,16.78
sinnamary,61,GF,1562051978,85,78.73,5.38,-52.96,78.73,13.24
chany,10,RU,1562051979,58,72.25,55.31,76.76,72.25,6.22
healdsburg,1,US,1562051979,87,56.01,38.61,-122.87,61.0,3.36
arlit,0,NE,1562051979,13,92.95,18.74,7.39,92.95,16.55
radcliff,22,US,1562051980,100,72.91,37.84,-85.95,77.0,3.2
road town,1,VG,1562051737,83,79.5,18.42,-64.62,81.0,5.82
celle,75,DE,1562051980,63,61.63,52.62,10.08,63.0,11.41
gamut,100,PH,1562051980,65,87.55,8.53,126.24,87.55,4.32
wingham,100,AU,1562051981,68,62.28,-31.86,152.37,64.4,5.82
margate,20,AU,1562051981,66,46.33,-43.03,147.26,50.0,5.82
nagareyama,75,JP,1562051981,78,79.65,35.87,139.91,82.4,13.87
moanda,98,CD,1562051982,79,72.79,-5.93,12.38,72.79,8.68
puga,0,ES,1562051982,82,64.09,42.33,-8.01,68.0,3.36
talara,0,PE,1562051704,90,65.77,-4.58,-81.27,65.77,19.22
zhanaozen,7,KZ,1562051982,36,74.05,43.35,52.85,74.05,20.6
zaysan,0,KZ,1562051983,33,73.69,47.47,84.87,73.69,9.8
anadyr,20,RU,1562051983,76,50.0,64.73,177.51,50.0,22.37
sabha,0,LY,1562051983,38,79.45,27.03,14.43,79.45,13.15
angola,1,US,1562051984,83,72.12,41.63,-85.0,75.2,3.42
mount isa,0,AU,1562051887,22,77.0,-20.73,139.49,77.0,9.17
manbij,0,SY,1562051984,33,86.0,36.53,37.96,86.0,6.93
caraballeda,75,VE,1562051985,88,73.98,10.61,-66.85,77.0,3.47
phalodi,10,IN,1562051985,37,99.79,27.13,72.36,99.79,9.66
mana,98,NG,1562051985,69,82.51,13.03,5.27,82.51,18.5
yerbogachen,25,RU,1562051808,36,86.83,61.28,108.01,86.83,11.59
kourou,90,GF,1562051986,100,73.4,5.16,-52.64,73.4,2.24
itarema,0,BR,1562051967,95,70.63,-2.92,-39.92,70.63,4.63
brigantine,1,US,1562051986,88,68.49,39.41,-74.36,73.99,4.7
roald,75,NO,1562051974,76,44.71,62.58,6.12,48.99,20.8
teguldet,33,RU,1562051987,37,87.91,57.31,88.17,87.91,2.13
verkhoyansk,100,RU,1562051987,40,58.93,67.55,133.39,58.93,14.41
along,100,IN,1562051987,99,64.51,28.17,94.8,64.51,3.24
haines junction,93,CA,1562051988,72,63.07,60.75,-137.51,63.07,5.5
imeni poliny osipenko,65,RU,1562051988,43,74.05,52.42,136.49,74.05,7.2
turochak,82,RU,1562051988,49,69.01,52.26,87.12,69.01,4.05
palu,76,ID,1562051988,68,83.41,-0.9,119.87,83.41,5.03
nakapiripirit,16,UG,1562051989,74,71.71,1.81,34.71,71.71,3.91
puerto del rosario,75,ES,1562051989,68,69.8,28.5,-13.86,69.8,19.46
bermejo,90,AR,1562051989,86,47.23,-22.73,-64.34,47.23,1.83
jiayuguan,92,CN,1562051990,14,87.73,39.77,98.29,87.73,10.56
ochakiv,0,UA,1562051990,48,83.93,46.61,31.55,86.0,15.66
lavrentiya,100,RU,1562051990,88,44.71,65.58,-170.99,44.71,5.73
ust-tsilma,29,RU,1562051991,51,70.45,65.44,52.15,70.45,4.21
pangody,0,RU,1562051991,37,81.61,65.85,74.49,81.61,13.49
rosario do sul,0,BR,1562051991,77,43.27,-30.26,-54.91,43.27,4.72
high level,40,CA,1562051991,87,50.0,58.52,-117.13,50.0,7.78
san cristobal,2,HN,1562051992,97,65.95,14.68,-86.92,65.95,4.0
la asuncion,90,AR,1562051992,33,54.25,-26.05,-65.39,54.25,7.34
tamandare,0,BR,1562051992,83,71.71,-8.28,-70.75,71.71,1.72
cap malheureux,40,MU,1562051992,60,73.71,-19.98,57.61,73.99,13.87
lom sak,40,TH,1562051993,78,82.4,16.78,101.24,82.4,3.36
manokwari,94,ID,1562051993,82,77.29,-0.87,134.08,77.29,2.53
san vicente,75,EC,1562051993,88,73.4,-0.59,-80.41,73.4,4.7
del rio,1,US,1562051994,65,81.48,29.36,-100.9,82.4,14.99
zhigansk,83,RU,1562051964,48,53.53,66.77,123.37,53.53,18.84
fuyu,50,CN,1562051994,40,79.81,47.79,124.46,79.81,8.88
emba,20,CY,1562051994,62,84.79,34.81,32.42,86.0,11.41
kenai,1,US,1562051995,59,64.18,60.55,-151.26,71.6,6.93
luena,0,AO,1562051995,41,51.19,-11.78,19.91,51.19,2.82
batagay,83,RU,1562051871,45,58.03,67.65,134.64,58.03,11.36
amapa,20,HN,1562051995,88,80.6,15.09,-87.97,80.6,4.7
nuevitas,5,CU,1562051996,94,77.0,21.55,-77.27,77.0,4.7
kawalu,32,ID,1562051996,47,83.05,-7.38,108.21,83.05,6.08
flinders,0,AU,1562051996,14,62.56,-34.58,150.85,66.2,12.75
langsa,84,ID,1562051752,46,85.75,4.47,97.97,85.75,5.21
jacmel,18,HT,1562051997,78,80.6,18.24,-72.54,80.6,9.17
bonthe,20,SL,1562051997,89,76.21,7.53,-12.5,76.21,1.68
morondava,23,MG,1562051711,87,74.23,-20.3,44.28,74.23,10.38
kupang,20,ID,1562051998,43,87.8,-10.16,123.6,87.8,19.46
belaya gora,83,RU,1562051998,48,63.79,68.54,146.19,63.79,12.66
hinesville,20,US,1562051998,83,78.91,31.85,-81.6,80.01,6.31
riyadh,0,SA,1562051817,13,96.8,24.63,46.72,96.8,5.82
bambanglipuro,32,ID,1562051999,78,77.47,-7.95,110.28,77.47,11.92
puerto leguizamo,100,CO,1562051999,99,70.63,-0.19,-74.78,70.63,1.16
achalpur,94,IN,1562051999,71,81.43,21.25,77.51,81.43,14.99
goderich,78,CA,1562051999,93,66.38,43.74,-81.71,70.0,6.33
gayny,97,RU,1562052000,83,63.43,60.3,54.33,63.43,3.29
solano,91,CO,1562051709,98,70.27,0.7,-75.25,70.27,1.54
mustasaari,75,FI,1562052000,76,52.36,63.17,21.67,53.6,10.29
colares,75,PT,1562052001,88,64.49,38.8,-9.45,66.99,14.99
bintulu,75,MY,1562051752,66,91.13,3.17,113.03,91.4,5.82
eenhana,0,NA,1562051941,26,59.0,-17.48,16.34,59.0,11.41
vanavara,0,RU,1562052002,24,93.31,60.35,102.28,93.31,5.75
raymondville,1,US,1562052002,88,71.49,37.34,-91.83,73.4,4.7
cocobeach,40,GA,1562052002,78,77.0,1.01,9.58,77.0,9.17
sai buri,20,TH,1562052002,70,89.6,6.7,101.62,89.6,6.93
urusha,49,RU,1562052003,32,78.55,54.05,122.9,78.55,10.6
pauini,65,BR,1562052003,72,71.89,-7.71,-67.0,71.89,0.34
mairi,0,BR,1562052003,96,57.13,-11.71,-40.15,57.13,0.89
ko samui,20,TH,1562052004,52,93.2,9.54,99.94,93.2,11.41
dongsheng,48,CN,1562052004,54,90.43,29.72,112.52,90.43,7.85
xichang,71,CN,1562052004,48,77.11,27.88,102.25,77.11,4.88
sterling,40,US,1562052005,88,64.69,39.0,-77.4,70.0,3.22
manica,0,MZ,1562052005,77,69.8,-18.94,32.88,69.8,0.89
chadiza,0,ZM,1562052005,62,68.47,-14.06,32.43,68.47,5.59
muros,90,ES,1562052005,93,62.76,42.77,-9.06,68.0,9.17
kirkcudbright,42,GB,1562052006,87,55.53,54.84,-4.04,57.0,5.01
wangou,17,CN,1562052006,45,77.11,42.06,126.91,77.11,9.24
aykhal,75,RU,1562052006,38,59.0,65.95,111.51,59.0,6.71
barra dos coqueiros,40,BR,1562052007,94,73.4,-10.91,-37.04,73.4,3.36
hamilton,90,CA,1562051771,68,71.11,43.26,-79.87,75.0,8.05
mangai,84,CD,1562052007,47,72.61,-4.07,19.59,72.61,1.28
gondanglegi,42,ID,1562052008,54,85.57,-7.75,112.01,85.57,9.13
gao,0,ML,1562052008,35,90.25,16.28,-0.04,90.25,17.92
aurora,75,US,1562051804,78,76.23,41.76,-88.32,79.0,6.93
tommot,100,RU,1562052008,41,77.29,58.97,126.27,77.29,4.47
marienburg,20,DE,1562052009,63,61.61,52.12,9.98,64.0,16.11
mahon,75,IE,1562052009,87,54.97,51.89,-8.4,57.99,10.29
adelaide,75,AU,1562051863,82,57.33,-34.93,138.6,60.01,3.36
diamantino,0,BR,1562052009,54,67.21,-14.4,-56.44,67.21,4.38
trinidad,3,BO,1562052010,82,65.59,-14.83,-64.9,65.59,2.84
narathiwat,20,TH,1562052010,70,89.33,6.43,101.8,89.6,6.93
ola,88,RU,1562052010,92,47.59,59.58,151.3,47.59,10.33
yarmouth,5,CA,1562051782,100,51.94,43.84,-66.12,53.01,8.05
walvis bay,0,NA,1562052011,76,53.6,-22.95,14.51,53.6,6.93
lekoni,67,GA,1562051828,78,71.17,-1.58,14.26,71.17,4.21
luanda,75,AO,1562052011,88,71.6,-8.83,13.24,71.6,2.24
antalaha,14,MG,1562052012,70,69.19,-14.9,50.28,69.19,3.67
ixtapa,5,MX,1562052012,69,79.68,20.71,-105.21,81.0,5.32
zaraza,98,VE,1562052012,95,73.33,9.35,-65.33,73.33,4.34
lubbock,1,US,1562051871,64,77.63,33.58,-101.86,80.6,3.36
doha,0,QA,1562052013,19,105.71,25.29,51.53,107.6,13.87
jasper,1,US,1562051727,106,74.3,33.83,-87.28,78.8,1.99
timbiqui,27,CO,1562052013,85,79.09,2.77,-77.67,79.09,14.0
mindelo,90,PT,1562052014,100,61.95,41.31,-8.72,66.99,6.87
uirauna,97,BR,1562052014,81,69.37,-6.52,-38.41,69.37,6.22
zabaykalsk,22,CN,1562052014,27,82.87,49.64,117.33,82.87,14.76
pasighat,100,IN,1562052015,98,73.51,28.06,95.33,73.51,3.85
armidale,27,AU,1562052015,41,54.0,-30.51,151.67,54.0,5.37
gornopravdinsk,21,RU,1562051967,35,78.73,60.06,69.92,78.73,9.91
dodge city,1,US,1562052015,88,70.81,37.75,-100.02,73.99,6.93
bonavista,100,CA,1562051873,85,48.0,48.65,-53.11,48.0,4.0
